header: 
  seq: 86427
  stamp: 
    secs: 1411078514
    nsecs: 861046227
  frame_id: world
orientation: 
  x: -0.00253698102894
  y: -0.00417199633586
  z: 0.0207319164279
  w: 0.999773147176
orientation_covariance: [0.0, 0.0, 0.0, 0.0, 0.0, 0.0, 0.0, 0.0, 0.0]
angular_velocity: 
  x: 0.00389761428149
  y: -0.0079396232837
  z: -0.00940669362877
angular_velocity_covariance: [0.0, 0.0, 0.0, 0.0, 0.0, 0.0, 0.0, 0.0, 0.0]
linear_acceleration: 
  x: 0.2641
  y: -0.0123
  z: -9.6673
linear_acceleration_covariance: [0.0, 0.0, 0.0, 0.0, 0.0, 0.0, 0.0, 0.0, 0.0]
velocity_ned: 
  x: 0.403095511953
  y: 0.0289433187132
  z: -0.0049
smoothed_coordinates_ned: 
  x: -2.97453767856
  y: 1.25072643177
  z: -9.27311098299
velocity_forward: 0.403949079749
velocity_lateral: 0.0121992200679
---
header: 
  seq: 86428
  stamp: 
    secs: 1411078514
    nsecs: 871156981
  frame_id: world
orientation: 
  x: -0.00252279252721
  y: -0.00416854756683
  z: 0.0206729983187
  w: 0.999774417491
orientation_covariance: [0.0, 0.0, 0.0, 0.0, 0.0, 0.0, 0.0, 0.0, 0.0]
angular_velocity: 
  x: 0.00286787839302
  y: 0.000537909816508
  z: -0.011879765425
angular_velocity_covariance: [0.0, 0.0, 0.0, 0.0, 0.0, 0.0, 0.0, 0.0, 0.0]
linear_acceleration: 
  x: 0.4011
  y: 0.1073
  z: -9.7692
linear_acceleration_covariance: [0.0, 0.0, 0.0, 0.0, 0.0, 0.0, 0.0, 0.0, 0.0]
velocity_ned: 
  x: 0.407802954272
  y: 0.029698298577
  z: -0.0046
smoothed_coordinates_ned: 
  x: -2.9704596529
  y: 1.25102341447
  z: -9.27315698295
velocity_forward: 0.408682276268
velocity_lateral: 0.0128065243062
---
header: 
  seq: 86429
  stamp: 
    secs: 1411078514
    nsecs: 881090695
  frame_id: world
orientation: 
  x: -0.00253088938747
  y: -0.00414908807405
  z: 0.0206260302639
  w: 0.99977544806
orientation_covariance: [0.0, 0.0, 0.0, 0.0, 0.0, 0.0, 0.0, 0.0, 0.0]
angular_velocity: 
  x: -0.00142269256922
  y: 0.00397071208336
  z: -0.00944287516621
angular_velocity_covariance: [0.0, 0.0, 0.0, 0.0, 0.0, 0.0, 0.0, 0.0, 0.0]
linear_acceleration: 
  x: 0.1817
  y: 0.0963
  z: -9.9114
linear_acceleration_covariance: [0.0, 0.0, 0.0, 0.0, 0.0, 0.0, 0.0, 0.0, 0.0]
velocity_ned: 
  x: 0.410408578381
  y: 0.0302733866002
  z: -0.0057
smoothed_coordinates_ned: 
  x: -2.96635557103
  y: 1.25132614805
  z: -9.27321398289
velocity_forward: 0.411308205853
velocity_lateral: 0.0133120170572
---
header: 
  seq: 86430
  stamp: 
    secs: 1411078514
    nsecs: 891142102
  frame_id: world
orientation: 
  x: -0.00251496106162
  y: -0.0041771676491
  z: 0.0205885264479
  w: 0.999776144354
orientation_covariance: [0.0, 0.0, 0.0, 0.0, 0.0, 0.0, 0.0, 0.0, 0.0]
angular_velocity: 
  x: 0.00320529659044
  y: -0.00603131875758
  z: -0.00790256716591
angular_velocity_covariance: [0.0, 0.0, 0.0, 0.0, 0.0, 0.0, 0.0, 0.0, 0.0]
linear_acceleration: 
  x: 0.269
  y: -0.0235
  z: -9.6397
linear_acceleration_covariance: [0.0, 0.0, 0.0, 0.0, 0.0, 0.0, 0.0, 0.0, 0.0]
velocity_ned: 
  x: 0.413802679461
  y: 0.0296408728425
  z: -0.004
smoothed_coordinates_ned: 
  x: -2.96221754818
  y: 1.25162255649
  z: -9.27325398285
velocity_forward: 0.414672374097
velocity_lateral: 0.0125710842984
---
header: 
  seq: 86431
  stamp: 
    secs: 1411078514
    nsecs: 901134769
  frame_id: world
orientation: 
  x: -0.0025035283848
  y: -0.00418874168797
  z: 0.0205140589998
  w: 0.999777655367
orientation_covariance: [0.0, 0.0, 0.0, 0.0, 0.0, 0.0, 0.0, 0.0, 0.0]
angular_velocity: 
  x: 0.00227375650662
  y: -0.00232753593031
  z: -0.0149498497598
angular_velocity_covariance: [0.0, 0.0, 0.0, 0.0, 0.0, 0.0, 0.0, 0.0, 0.0]
linear_acceleration: 
  x: 0.3697
  y: 0.0824
  z: -9.713
linear_acceleration_covariance: [0.0, 0.0, 0.0, 0.0, 0.0, 0.0, 0.0, 0.0, 0.0]
velocity_ned: 
  x: 0.418208221127
  y: 0.0301987331548
  z: -0.0031
smoothed_coordinates_ned: 
  x: -2.95803546996
  y: 1.25192454354
  z: -9.27328498282
velocity_forward: 0.419095220898
velocity_lateral: 0.0130094511992
---
header: 
  seq: 86432
  stamp: 
    secs: 1411078514
    nsecs: 911135180
  frame_id: world
orientation: 
  x: -0.00249865912528
  y: -0.00418806801885
  z: 0.0204855875793
  w: 0.99977825416
orientation_covariance: [0.0, 0.0, 0.0, 0.0, 0.0, 0.0, 0.0, 0.0, 0.0]
angular_velocity: 
  x: 0.00109769789224
  y: 0.000100179036706
  z: -0.00576171185482
angular_velocity_covariance: [0.0, 0.0, 0.0, 0.0, 0.0, 0.0, 0.0, 0.0, 0.0]
linear_acceleration: 
  x: 0.2179
  y: 0.0802
  z: -9.8764
linear_acceleration_covariance: [0.0, 0.0, 0.0, 0.0, 0.0, 0.0, 0.0, 0.0, 0.0]
velocity_ned: 
  x: 0.421211912515
  y: 0.0305700019574
  z: -0.0039
smoothed_coordinates_ned: 
  x: -2.95382335485
  y: 1.25223024327
  z: -9.27332398279
velocity_forward: 0.422110862144
velocity_lateral: 0.0132811919525
---
header: 
  seq: 86433
  stamp: 
    secs: 1411078514
    nsecs: 921075700
  frame_id: world
orientation: 
  x: -0.00246101055325
  y: -0.00415418820995
  z: 0.0204458444132
  w: 0.999779302443
orientation_covariance: [0.0, 0.0, 0.0, 0.0, 0.0, 0.0, 0.0, 0.0, 0.0]
angular_velocity: 
  x: 0.00776900637381
  y: 0.00605710582436
  z: -0.0083774762904
angular_velocity_covariance: [0.0, 0.0, 0.0, 0.0, 0.0, 0.0, 0.0, 0.0, 0.0]
linear_acceleration: 
  x: 0.1839
  y: -0.0528
  z: -9.6901
linear_acceleration_covariance: [0.0, 0.0, 0.0, 0.0, 0.0, 0.0, 0.0, 0.0, 0.0]
velocity_ned: 
  x: 0.423603187797
  y: 0.0296470729038
  z: -0.0028
smoothed_coordinates_ned: 
  x: -2.94958732701
  y: 1.25252671371
  z: -9.27335198276
velocity_forward: 0.424461321224
velocity_lateral: 0.0122949902258
---
header: 
  seq: 86434
  stamp: 
    secs: 1411078514
    nsecs: 931069699
  frame_id: world
orientation: 
  x: -0.0024744530364
  y: -0.00419430971927
  z: 0.0203826943707
  w: 0.999780391195
orientation_covariance: [0.0, 0.0, 0.0, 0.0, 0.0, 0.0, 0.0, 0.0, 0.0]
angular_velocity: 
  x: -0.00270526096775
  y: -0.00804475289237
  z: -0.0126518344123
angular_velocity_covariance: [0.0, 0.0, 0.0, 0.0, 0.0, 0.0, 0.0, 0.0, 0.0]
linear_acceleration: 
  x: 0.3491
  y: 0.0341
  z: -9.7086
linear_acceleration_covariance: [0.0, 0.0, 0.0, 0.0, 0.0, 0.0, 0.0, 0.0, 0.0]
velocity_ned: 
  x: 0.427903948047
  y: 0.0297059132141
  z: -0.0018
smoothed_coordinates_ned: 
  x: -2.94530829161
  y: 1.25282377256
  z: -9.27336998274
velocity_forward: 0.428759350915
velocity_lateral: 0.0122318846959
---
header: 
  seq: 86435
  stamp: 
    secs: 1411078514
    nsecs: 941180298
  frame_id: world
orientation: 
  x: -0.002477179022
  y: -0.00418336185762
  z: 0.0203822130727
  w: 0.999780440126
orientation_covariance: [0.0, 0.0, 0.0, 0.0, 0.0, 0.0, 0.0, 0.0, 0.0]
angular_velocity: 
  x: -0.000478483066444
  y: 0.0022590992553
  z: -0.000185538432194
angular_velocity_covariance: [0.0, 0.0, 0.0, 0.0, 0.0, 0.0, 0.0, 0.0, 0.0]
linear_acceleration: 
  x: 0.0815
  y: 0.0678
  z: -9.904
linear_acceleration_covariance: [0.0, 0.0, 0.0, 0.0, 0.0, 0.0, 0.0, 0.0, 0.0]
velocity_ned: 
  x: 0.429505789163
  y: 0.029890590509
  z: -0.0029
smoothed_coordinates_ned: 
  x: -2.94101323782
  y: 1.25312267818
  z: -9.27339898272
velocity_forward: 0.430367377951
velocity_lateral: 0.0123515179501
---
header: 
  seq: 86436
  stamp: 
    secs: 1411078514
    nsecs: 951156039
  frame_id: world
orientation: 
  x: -0.00245553598379
  y: -0.00419585202619
  z: 0.0203542750282
  w: 0.99978101035
orientation_covariance: [0.0, 0.0, 0.0, 0.0, 0.0, 0.0, 0.0, 0.0, 0.0]
angular_velocity: 
  x: 0.0043896257216
  y: -0.00311054773097
  z: -0.00596808837381
angular_velocity_covariance: [0.0, 0.0, 0.0, 0.0, 0.0, 0.0, 0.0, 0.0, 0.0]
linear_acceleration: 
  x: 0.0564
  y: -0.0459
  z: -9.7017
linear_acceleration_covariance: [0.0, 0.0, 0.0, 0.0, 0.0, 0.0, 0.0, 0.0, 0.0]
velocity_ned: 
  x: 0.430597123988
  y: 0.0289801036903
  z: -0.0019
smoothed_coordinates_ned: 
  x: -2.93670727069
  y: 1.25341247894
  z: -9.2734179827
velocity_forward: 0.431420039605
velocity_lateral: 0.0114214459196
---
header: 
  seq: 86437
  stamp: 
    secs: 1411078514
    nsecs: 961304018
  frame_id: world
orientation: 
  x: -0.00245244888471
  y: -0.00420917887104
  z: 0.0203097619266
  w: 0.999781867148
orientation_covariance: [0.0, 0.0, 0.0, 0.0, 0.0, 0.0, 0.0, 0.0, 0.0]
angular_velocity: 
  x: 0.000624139811836
  y: -0.00265528594444
  z: -0.00891175661969
angular_velocity_covariance: [0.0, 0.0, 0.0, 0.0, 0.0, 0.0, 0.0, 0.0, 0.0]
linear_acceleration: 
  x: 0.2083
  y: 0.0472
  z: -9.7591
linear_acceleration_covariance: [0.0, 0.0, 0.0, 0.0, 0.0, 0.0, 0.0, 0.0, 0.0]
velocity_ned: 
  x: 0.433497948363
  y: 0.0290523433308
  z: -0.0015
smoothed_coordinates_ned: 
  x: -2.93237229534
  y: 1.2537030021
  z: -9.27343298268
velocity_forward: 0.434320385304
velocity_lateral: 0.0114141538987
---
header: 
  seq: 86438
  stamp: 
    secs: 1411078514
    nsecs: 971253476
  frame_id: world
orientation: 
  x: -0.00246095027638
  y: -0.00419571018387
  z: 0.0202552755805
  w: 0.999783008233
orientation_covariance: [0.0, 0.0, 0.0, 0.0, 0.0, 0.0, 0.0, 0.0, 0.0]
angular_velocity: 
  x: -0.0015285576018
  y: 0.00269391269457
  z: -0.0110369083557
angular_velocity_covariance: [0.0, 0.0, 0.0, 0.0, 0.0, 0.0, 0.0, 0.0, 0.0]
linear_acceleration: 
  x: 0.0136
  y: 0.078
  z: -9.879
linear_acceleration_covariance: [0.0, 0.0, 0.0, 0.0, 0.0, 0.0, 0.0, 0.0, 0.0]
velocity_ned: 
  x: 0.434400778738
  y: 0.0293437157109
  z: -0.0023
smoothed_coordinates_ned: 
  x: -2.92802829169
  y: 1.25399643897
  z: -9.27345598266
velocity_forward: 0.435233034554
velocity_lateral: 0.0117160417071
---
header: 
  seq: 86439
  stamp: 
    secs: 1411078514
    nsecs: 981187171
  frame_id: world
orientation: 
  x: -0.00245487038683
  y: -0.00420502153401
  z: 0.0202287815716
  w: 0.999783520469
orientation_covariance: [0.0, 0.0, 0.0, 0.0, 0.0, 0.0, 0.0, 0.0, 0.0]
angular_velocity: 
  x: 0.00133696675629
  y: -0.00238876736669
  z: -0.00564702668317
angular_velocity_covariance: [0.0, 0.0, 0.0, 0.0, 0.0, 0.0, 0.0, 0.0, 0.0]
linear_acceleration: 
  x: 0.0341
  y: -0.0501
  z: -9.7435
linear_acceleration_covariance: [0.0, 0.0, 0.0, 0.0, 0.0, 0.0, 0.0, 0.0, 0.0]
velocity_ned: 
  x: 0.435392118147
  y: 0.0284341859852
  z: -0.0017
smoothed_coordinates_ned: 
  x: -2.92367437466
  y: 1.25428078056
  z: -9.27347298265
velocity_forward: 0.43618613171
velocity_lateral: 0.0107902040894
---
header: 
  seq: 86440
  stamp: 
    secs: 1411078514
    nsecs: 991124979
  frame_id: world
orientation: 
  x: -0.00244443896463
  y: -0.00421119283772
  z: 0.0201818188673
  w: 0.999784469153
orientation_covariance: [0.0, 0.0, 0.0, 0.0, 0.0, 0.0, 0.0, 0.0, 0.0]
angular_velocity: 
  x: 0.0021586025102
  y: -0.00122783338183
  z: -0.00943627364956
angular_velocity_covariance: [0.0, 0.0, 0.0, 0.0, 0.0, 0.0, 0.0, 0.0, 0.0]
linear_acceleration: 
  x: 0.2751
  y: 0.0322
  z: -9.7501
linear_acceleration_covariance: [0.0, 0.0, 0.0, 0.0, 0.0, 0.0, 0.0, 0.0, 0.0]
velocity_ned: 
  x: 0.438891957839
  y: 0.0284006876357
  z: -0.0012
smoothed_coordinates_ned: 
  x: -2.91928545927
  y: 1.25456478717
  z: -9.27348498263
velocity_forward: 0.439680748584
velocity_lateral: 0.0106564217664
---
header: 
  seq: 86441
  stamp: 
    secs: 1411078515
    nsecs: 1077665
  frame_id: world
orientation: 
  x: -0.002449998217
  y: -0.00419268872064
  z: 0.0201373557755
  w: 0.999785429866
orientation_covariance: [0.0, 0.0, 0.0, 0.0, 0.0, 0.0, 0.0, 0.0, 0.0]
angular_velocity: 
  x: -0.000945660689163
  y: 0.00365459407772
  z: -0.00897677937726
angular_velocity_covariance: [0.0, 0.0, 0.0, 0.0, 0.0, 0.0, 0.0, 0.0, 0.0]
linear_acceleration: 
  x: 0.0807
  y: 0.0905
  z: -9.8447
linear_acceleration_covariance: [0.0, 0.0, 0.0, 0.0, 0.0, 0.0, 0.0, 0.0, 0.0]
velocity_ned: 
  x: 0.440496670549
  y: 0.0288853511877
  z: -0.0016
smoothed_coordinates_ned: 
  x: -2.91488049677
  y: 1.2548536404
  z: -9.27350098262
velocity_forward: 0.441302733885
velocity_lateral: 0.0111151727553
---
header: 
  seq: 86442
  stamp: 
    secs: 1411078515
    nsecs: 11092120
  frame_id: world
orientation: 
  x: -0.00243757564193
  y: -0.00418893531811
  z: 0.0201364175022
  w: 0.999785494862
orientation_covariance: [0.0, 0.0, 0.0, 0.0, 0.0, 0.0, 0.0, 0.0, 0.0]
angular_velocity: 
  x: 0.00251489070025
  y: 0.00023697116101
  z: -0.000580404543956
angular_velocity_covariance: [0.0, 0.0, 0.0, 0.0, 0.0, 0.0, 0.0, 0.0, 0.0]
linear_acceleration: 
  x: 0.0732
  y: -0.0077
  z: -9.8038
linear_acceleration_covariance: [0.0, 0.0, 0.0, 0.0, 0.0, 0.0, 0.0, 0.0, 0.0]
velocity_ned: 
  x: 0.441790867813
  y: 0.0282729364305
  z: -0.0017
smoothed_coordinates_ned: 
  x: -2.9104625923
  y: 1.2551363695
  z: -9.2735179826
velocity_forward: 0.442571187157
velocity_lateral: 0.0104519997174
---
header: 
  seq: 86443
  stamp: 
    secs: 1411078515
    nsecs: 21105009
  frame_id: world
orientation: 
  x: -0.00241747369533
  y: -0.00420638126238
  z: 0.0200754677804
  w: 0.999786696136
orientation_covariance: [0.0, 0.0, 0.0, 0.0, 0.0, 0.0, 0.0, 0.0, 0.0]
angular_velocity: 
  x: 0.00412139326046
  y: -0.00356114263233
  z: -0.0121784925481
angular_velocity_covariance: [0.0, 0.0, 0.0, 0.0, 0.0, 0.0, 0.0, 0.0, 0.0]
linear_acceleration: 
  x: 0.2594
  y: 0.0836
  z: -9.7595
linear_acceleration_covariance: [0.0, 0.0, 0.0, 0.0, 0.0, 0.0, 0.0, 0.0, 0.0]
velocity_ned: 
  x: 0.44519645528
  y: 0.02884036769
  z: -0.0013
smoothed_coordinates_ned: 
  x: -2.90601063199
  y: 1.2554247729
  z: -9.27353098259
velocity_forward: 0.445995537949
velocity_lateral: 0.0109361844287
---
header: 
  seq: 86444
  stamp: 
    secs: 1411078515
    nsecs: 31371822
  frame_id: world
orientation: 
  x: -0.00243212927342
  y: -0.00419867528217
  z: 0.0200759274469
  w: 0.999786683753
orientation_covariance: [0.0, 0.0, 0.0, 0.0, 0.0, 0.0, 0.0, 0.0, 0.0]
angular_velocity: 
  x: -0.00290991640166
  y: 0.00159003018962
  z: -2.21479445474e-05
angular_velocity_covariance: [0.0, 0.0, 0.0, 0.0, 0.0, 0.0, 0.0, 0.0, 0.0]
linear_acceleration: 
  x: -0.001
  y: 0.0869
  z: -9.8125
linear_acceleration_covariance: [0.0, 0.0, 0.0, 0.0, 0.0, 0.0, 0.0, 0.0, 0.0]
velocity_ned: 
  x: 0.446000247435
  y: 0.0292326925837
  z: -0.0014
smoothed_coordinates_ned: 
  x: -2.90155063377
  y: 1.25571709955
  z: -9.27354498258
velocity_forward: 0.446814449777
velocity_lateral: 0.0112954623954
---
header: 
  seq: 86445
  stamp: 
    secs: 1411078515
    nsecs: 41537441
  frame_id: world
orientation: 
  x: -0.00242340895684
  y: -0.00419685194537
  z: 0.0200169816573
  w: 0.99978789449
orientation_covariance: [0.0, 0.0, 0.0, 0.0, 0.0, 0.0, 0.0, 0.0, 0.0]
angular_velocity: 
  x: 0.00190038644577
  y: -0.000100718782781
  z: -0.0120942997765
angular_velocity_covariance: [0.0, 0.0, 0.0, 0.0, 0.0, 0.0, 0.0, 0.0, 0.0]
linear_acceleration: 
  x: -0.0589
  y: 0.0154
  z: -9.8744
linear_acceleration_covariance: [0.0, 0.0, 0.0, 0.0, 0.0, 0.0, 0.0, 0.0, 0.0]
velocity_ned: 
  x: 0.445996418639
  y: 0.0288327108993
  z: -0.0022
smoothed_coordinates_ned: 
  x: -2.89709067384
  y: 1.25600542638
  z: -9.27356698256
velocity_forward: 0.44679327035
velocity_lateral: 0.0109486789281
---
header: 
  seq: 86446
  stamp: 
    secs: 1411078515
    nsecs: 51154085
  frame_id: world
orientation: 
  x: -0.0024213325201
  y: -0.00418074598116
  z: 0.0199925387022
  w: 0.999788456079
orientation_covariance: [0.0, 0.0, 0.0, 0.0, 0.0, 0.0, 0.0, 0.0, 0.0]
angular_velocity: 
  x: 0.000611096484503
  y: 0.00317511531985
  z: -0.00497108678181
angular_velocity_covariance: [0.0, 0.0, 0.0, 0.0, 0.0, 0.0, 0.0, 0.0, 0.0]
linear_acceleration: 
  x: 0.1603
  y: 0.0582
  z: -9.7975
linear_acceleration_covariance: [0.0, 0.0, 0.0, 0.0, 0.0, 0.0, 0.0, 0.0, 0.0]
velocity_ned: 
  x: 0.448398223113
  y: 0.0290097314319
  z: -0.0021
smoothed_coordinates_ned: 
  x: -2.89260669588
  y: 1.25629552342
  z: -9.27358798254
velocity_forward: 0.449199696058
velocity_lateral: 0.0110513827625
---
header: 
  seq: 86447
  stamp: 
    secs: 1411078515
    nsecs: 61168844
  frame_id: world
orientation: 
  x: -0.00242178527247
  y: -0.00421715289062
  z: 0.019948949226
  w: 0.999789172777
orientation_covariance: [0.0, 0.0, 0.0, 0.0, 0.0, 0.0, 0.0, 0.0, 0.0]
angular_velocity: 
  x: -0.000126855832906
  y: -0.00725405620345
  z: -0.00877512257435
angular_velocity_covariance: [0.0, 0.0, 0.0, 0.0, 0.0, 0.0, 0.0, 0.0, 0.0]
linear_acceleration: 
  x: 0.0139
  y: 0.0922
  z: -9.7672
linear_acceleration_covariance: [0.0, 0.0, 0.0, 0.0, 0.0, 0.0, 0.0, 0.0, 0.0]
velocity_ned: 
  x: 0.449302967887
  y: 0.0295010946484
  z: -0.0018
smoothed_coordinates_ned: 
  x: -2.88811356337
  y: 1.25659054112
  z: -9.27360598295
velocity_forward: 0.450122367211
velocity_lateral: 0.0115453253131
---
header: 
  seq: 86448
  stamp: 
    secs: 1411078515
    nsecs: 71057329
  frame_id: world
orientation: 
  x: -0.0024046112888
  y: -0.00417728291113
  z: 0.0199411283277
  w: 0.999789537629
orientation_covariance: [0.0, 0.0, 0.0, 0.0, 0.0, 0.0, 0.0, 0.0, 0.0]
angular_velocity: 
  x: 0.00362818567813
  y: 0.00750906148258
  z: -0.00218750184819
angular_velocity_covariance: [0.0, 0.0, 0.0, 0.0, 0.0, 0.0, 0.0, 0.0, 0.0]
linear_acceleration: 
  x: 0.0131
  y: 0.035
  z: -9.9265
linear_acceleration_covariance: [0.0, 0.0, 0.0, 0.0, 0.0, 0.0, 0.0, 0.0, 0.0]
velocity_ned: 
  x: 0.450001978626
  y: 0.0293943995692
  z: -0.0031
smoothed_coordinates_ned: 
  x: -2.88361354787
  y: 1.25688448483
  z: -9.27363698292
velocity_forward: 0.45081638013
velocity_lateral: 0.0114180298719
---
header: 
  seq: 86449
  stamp: 
    secs: 1411078515
    nsecs: 81039434
  frame_id: world
orientation: 
  x: -0.00240879457167
  y: -0.00420077977098
  z: 0.0199045566877
  w: 0.999790157874
orientation_covariance: [0.0, 0.0, 0.0, 0.0, 0.0, 0.0, 0.0, 0.0, 0.0]
angular_velocity: 
  x: -0.000858299476081
  y: -0.0047370722718
  z: -0.00743386630907
angular_velocity_covariance: [0.0, 0.0, 0.0, 0.0, 0.0, 0.0, 0.0, 0.0, 0.0]
linear_acceleration: 
  x: 0.2278
  y: 0.0391
  z: -9.743
linear_acceleration_covariance: [0.0, 0.0, 0.0, 0.0, 0.0, 0.0, 0.0, 0.0, 0.0]
velocity_ned: 
  x: 0.453101836641
  y: 0.0293647296005
  z: -0.0025
smoothed_coordinates_ned: 
  x: -2.87908253383
  y: 1.25717813185
  z: -9.27366198289
velocity_forward: 0.453911763012
velocity_lateral: 0.0112978493309
---
header: 
  seq: 86450
  stamp: 
    secs: 1411078515
    nsecs: 91099847
  frame_id: world
orientation: 
  x: -0.00240607424374
  y: -0.00419660661439
  z: 0.0198570894921
  w: 0.999791125834
orientation_covariance: [0.0, 0.0, 0.0, 0.0, 0.0, 0.0, 0.0, 0.0, 0.0]
angular_velocity: 
  x: 0.000739240191031
  y: 0.000872448897344
  z: -0.00954865733292
angular_velocity_covariance: [0.0, 0.0, 0.0, 0.0, 0.0, 0.0, 0.0, 0.0, 0.0]
linear_acceleration: 
  x: 0.0723
  y: 0.0691
  z: -9.7746
linear_acceleration_covariance: [0.0, 0.0, 0.0, 0.0, 0.0, 0.0, 0.0, 0.0, 0.0]
velocity_ned: 
  x: 0.454604639534
  y: 0.0296503594066
  z: -0.0022
smoothed_coordinates_ned: 
  x: -2.87453649177
  y: 1.25747463516
  z: -9.27368398287
velocity_forward: 0.45542365121
velocity_lateral: 0.0115666727331
---
header: 
  seq: 86451
  stamp: 
    secs: 1411078515
    nsecs: 101070103
  frame_id: world
orientation: 
  x: -0.0024146278436
  y: -0.00417371354129
  z: 0.0198336201317
  w: 0.999791666899
orientation_covariance: [0.0, 0.0, 0.0, 0.0, 0.0, 0.0, 0.0, 0.0, 0.0]
angular_velocity: 
  x: -0.00155629398625
  y: 0.00422362873193
  z: -0.00530417848146
angular_velocity_covariance: [0.0, 0.0, 0.0, 0.0, 0.0, 0.0, 0.0, 0.0, 0.0]
linear_acceleration: 
  x: 0.0174
  y: 0.0254
  z: -9.9278
linear_acceleration_covariance: [0.0, 0.0, 0.0, 0.0, 0.0, 0.0, 0.0, 0.0, 0.0]
velocity_ned: 
  x: 0.455402688491
  y: 0.0294427118108
  z: -0.0035
smoothed_coordinates_ned: 
  x: -2.86998246923
  y: 1.257769062
  z: -9.27371898284
velocity_forward: 0.456212288157
velocity_lateral: 0.0113489265949
---
header: 
  seq: 86452
  stamp: 
    secs: 1411078515
    nsecs: 111115533
  frame_id: world
orientation: 
  x: -0.002395800577
  y: -0.00421930021365
  z: 0.0198140814966
  w: 0.999791908259
orientation_covariance: [0.0, 0.0, 0.0, 0.0, 0.0, 0.0, 0.0, 0.0, 0.0]
angular_velocity: 
  x: 0.00364286192003
  y: -0.00919971908868
  z: -0.00392418472054
angular_velocity_covariance: [0.0, 0.0, 0.0, 0.0, 0.0, 0.0, 0.0, 0.0, 0.0]
linear_acceleration: 
  x: 0.1551
  y: 0.0432
  z: -9.7006
linear_acceleration_covariance: [0.0, 0.0, 0.0, 0.0, 0.0, 0.0, 0.0, 0.0, 0.0]
velocity_ned: 
  x: 0.45770258315
  y: 0.0294206986024
  z: -0.0025
smoothed_coordinates_ned: 
  x: -2.86540544776
  y: 1.2580632687
  z: -9.27374398282
velocity_forward: 0.458509059425
velocity_lateral: 0.0112535516773
---
header: 
  seq: 86453
  stamp: 
    secs: 1411078515
    nsecs: 121121316
  frame_id: world
orientation: 
  x: -0.00244088812657
  y: -0.00417654441669
  z: 0.0197580207258
  w: 0.999793088173
orientation_covariance: [0.0, 0.0, 0.0, 0.0, 0.0, 0.0, 0.0, 0.0, 0.0]
angular_velocity: 
  x: -0.00873704515828
  y: 0.00871347430826
  z: -0.0112966192899
angular_velocity_covariance: [0.0, 0.0, 0.0, 0.0, 0.0, 0.0, 0.0, 0.0, 0.0]
linear_acceleration: 
  x: -0.0258
  y: 0.0888
  z: -9.7601
linear_acceleration_covariance: [0.0, 0.0, 0.0, 0.0, 0.0, 0.0, 0.0, 0.0, 0.0]
velocity_ned: 
  x: 0.458307341662
  y: 0.0299149331013
  z: -0.0021
smoothed_coordinates_ned: 
  x: -2.86082237871
  y: 1.25836241775
  z: -9.2737649828
velocity_forward: 0.45913161836
velocity_lateral: 0.0117748470135
---
header: 
  seq: 86454
  stamp: 
    secs: 1411078515
    nsecs: 131050236
  frame_id: world
orientation: 
  x: -0.00238986912552
  y: -0.00415746488202
  z: 0.0197307874151
  w: 0.999793828766
orientation_covariance: [0.0, 0.0, 0.0, 0.0, 0.0, 0.0, 0.0, 0.0, 0.0]
angular_velocity: 
  x: 0.0104198363455
  y: 0.00326985693781
  z: -0.00602080112107
angular_velocity_covariance: [0.0, 0.0, 0.0, 0.0, 0.0, 0.0, 0.0, 0.0, 0.0]
linear_acceleration: 
  x: -0.081
  y: 0.0498
  z: -9.9019
linear_acceleration_covariance: [0.0, 0.0, 0.0, 0.0, 0.0, 0.0, 0.0, 0.0, 0.0]
velocity_ned: 
  x: 0.458106393626
  y: 0.0298168518753
  z: -0.0031
smoothed_coordinates_ned: 
  x: -2.85624131915
  y: 1.25866058598
  z: -9.27379598277
velocity_forward: 0.458926307017
velocity_lateral: 0.0117100268005
---
header: 
  seq: 86455
  stamp: 
    secs: 1411078515
    nsecs: 141160253
  frame_id: world
orientation: 
  x: -0.00240480902416
  y: -0.00419614612272
  z: 0.0196821340661
  w: 0.999794590328
orientation_covariance: [0.0, 0.0, 0.0, 0.0, 0.0, 0.0, 0.0, 0.0, 0.0]
angular_velocity: 
  x: -0.00306840859738
  y: -0.0076489494234
  z: -0.00984786989139
angular_velocity_covariance: [0.0, 0.0, 0.0, 0.0, 0.0, 0.0, 0.0, 0.0, 0.0]
linear_acceleration: 
  x: 0.0862
  y: -0.0039
  z: -9.642
linear_acceleration_covariance: [0.0, 0.0, 0.0, 0.0, 0.0, 0.0, 0.0, 0.0, 0.0]
velocity_ned: 
  x: 0.459802486967
  y: 0.0294005995621
  z: -0.0016
smoothed_coordinates_ned: 
  x: -2.85164329866
  y: 1.2589545917
  z: -9.27381198275
velocity_forward: 0.460603556179
velocity_lateral: 0.0112718248444
---
header: 
  seq: 86456
  stamp: 
    secs: 1411078515
    nsecs: 151169700
  frame_id: world
orientation: 
  x: -0.00242742172966
  y: -0.00416755839575
  z: 0.0196711190843
  w: 0.999794872039
orientation_covariance: [0.0, 0.0, 0.0, 0.0, 0.0, 0.0, 0.0, 0.0, 0.0]
angular_velocity: 
  x: -0.00434206453684
  y: 0.00581923830437
  z: -0.00219507200678
angular_velocity_covariance: [0.0, 0.0, 0.0, 0.0, 0.0, 0.0, 0.0, 0.0, 0.0]
linear_acceleration: 
  x: 0.0033
  y: 0.0127
  z: -9.7366
linear_acceleration_covariance: [0.0, 0.0, 0.0, 0.0, 0.0, 0.0, 0.0, 0.0, 0.0]
velocity_ned: 
  x: 0.460599578729
  y: 0.029092956521
  z: -0.0009
smoothed_coordinates_ned: 
  x: -2.84703730727
  y: 1.25924552099
  z: -9.27382098274
velocity_forward: 0.461387675106
velocity_lateral: 0.0109431832969
---
header: 
  seq: 86457
  stamp: 
    secs: 1411078515
    nsecs: 161073810
  frame_id: world
orientation: 
  x: -0.00239711448657
  y: -0.00413937034103
  z: 0.0196363257859
  w: 0.999795746223
orientation_covariance: [0.0, 0.0, 0.0, 0.0, 0.0, 0.0, 0.0, 0.0, 0.0]
angular_velocity: 
  x: 0.00630260125751
  y: 0.00518202264868
  z: -0.00762445792547
angular_velocity_covariance: [0.0, 0.0, 0.0, 0.0, 0.0, 0.0, 0.0, 0.0, 0.0]
linear_acceleration: 
  x: -0.0061
  y: -0.02
  z: -9.9903
linear_acceleration_covariance: [0.0, 0.0, 0.0, 0.0, 0.0, 0.0, 0.0, 0.0, 0.0]
velocity_ned: 
  x: 0.461192850854
  y: 0.0283872460216
  z: -0.0028
smoothed_coordinates_ned: 
  x: -2.84242538316
  y: 1.25952939318
  z: -9.27384898272
velocity_forward: 0.461951998412
velocity_lateral: 0.0102470075033
---
header: 
  seq: 86458
  stamp: 
    secs: 1411078515
    nsecs: 171065699
  frame_id: world
orientation: 
  x: -0.00243171410053
  y: -0.00416351267453
  z: 0.0196196233045
  w: 0.999795890325
orientation_covariance: [0.0, 0.0, 0.0, 0.0, 0.0, 0.0, 0.0, 0.0, 0.0]
angular_velocity: 
  x: -0.00688280038693
  y: -0.00467652687292
  z: -0.00333329495253
angular_velocity_covariance: [0.0, 0.0, 0.0, 0.0, 0.0, 0.0, 0.0, 0.0, 0.0]
linear_acceleration: 
  x: 0.1237
  y: -0.0718
  z: -9.6481
linear_acceleration_covariance: [0.0, 0.0, 0.0, 0.0, 0.0, 0.0, 0.0, 0.0, 0.0]
velocity_ned: 
  x: 0.46328222548
  y: 0.0272671973961
  z: -0.0013
smoothed_coordinates_ned: 
  x: -2.83779256532
  y: 1.25980206489
  z: -9.2738619827
velocity_forward: 0.463995460458
velocity_lateral: 0.009061052626
---
header: 
  seq: 86459
  stamp: 
    secs: 1411078515
    nsecs: 181080312
  frame_id: world
orientation: 
  x: -0.00245709280596
  y: -0.00414895340546
  z: 0.0195980628401
  w: 0.999796311662
orientation_covariance: [0.0, 0.0, 0.0, 0.0, 0.0, 0.0, 0.0, 0.0, 0.0]
angular_velocity: 
  x: -0.00499387205545
  y: 0.00299777906902
  z: -0.00442637126178
angular_velocity_covariance: [0.0, 0.0, 0.0, 0.0, 0.0, 0.0, 0.0, 0.0, 0.0]
linear_acceleration: 
  x: 0.0786
  y: 0.0442
  z: -9.7784
linear_acceleration_covariance: [0.0, 0.0, 0.0, 0.0, 0.0, 0.0, 0.0, 0.0, 0.0]
velocity_ned: 
  x: 0.464882152197
  y: 0.0272518838502
  z: -0.0011
smoothed_coordinates_ned: 
  x: -2.83314374823
  y: 1.26007458347
  z: -9.27387298269
velocity_forward: 0.465593166332
velocity_lateral: 0.00900296979206
---
header: 
  seq: 86460
  stamp: 
    secs: 1411078515
    nsecs: 191100796
  frame_id: world
orientation: 
  x: -0.00244734713494
  y: -0.00416274845858
  z: 0.0195915670537
  w: 0.999796405533
orientation_covariance: [0.0, 0.0, 0.0, 0.0, 0.0, 0.0, 0.0, 0.0, 0.0]
angular_velocity: 
  x: 0.00204528346528
  y: -0.00279947144487
  z: -0.00184910118057
angular_velocity_covariance: [0.0, 0.0, 0.0, 0.0, 0.0, 0.0, 0.0, 0.0, 0.0]
linear_acceleration: 
  x: -0.0008
  y: 0.0326
  z: -9.9634
linear_acceleration_covariance: [0.0, 0.0, 0.0, 0.0, 0.0, 0.0, 0.0, 0.0, 0.0]
velocity_ned: 
  x: 0.465680201159
  y: 0.0270442362471
  z: -0.0027
smoothed_coordinates_ned: 
  x: -2.82848695066
  y: 1.26034502557
  z: -9.27389998267
velocity_forward: 0.466382345993
velocity_lateral: 0.00877025345707
---
header: 
  seq: 86461
  stamp: 
    secs: 1411078515
    nsecs: 201138556
  frame_id: world
orientation: 
  x: -0.00244834666271
  y: -0.00416425060575
  z: 0.019584560375
  w: 0.999796534106
orientation_covariance: [0.0, 0.0, 0.0, 0.0, 0.0, 0.0, 0.0, 0.0, 0.0]
angular_velocity: 
  x: -0.00013840198038
  y: -0.000307129320559
  z: -0.00140965118816
angular_velocity_covariance: [0.0, 0.0, 0.0, 0.0, 0.0, 0.0, 0.0, 0.0, 0.0]
linear_acceleration: 
  x: 0.0635
  y: -0.0246
  z: -9.6481
linear_acceleration_covariance: [0.0, 0.0, 0.0, 0.0, 0.0, 0.0, 0.0, 0.0, 0.0]
velocity_ned: 
  x: 0.467074393844
  y: 0.0264308643786
  z: -0.0011
smoothed_coordinates_ned: 
  x: -2.82381621118
  y: 1.26060933397
  z: -9.27391098266
velocity_forward: 0.467751312139
velocity_lateral: 0.00810925349949
---
header: 
  seq: 86462
  stamp: 
    secs: 1411078515
    nsecs: 211077319
  frame_id: world
orientation: 
  x: -0.00245341100267
  y: -0.00414868733924
  z: 0.0195215949077
  w: 0.999797817811
orientation_covariance: [0.0, 0.0, 0.0, 0.0, 0.0, 0.0, 0.0, 0.0, 0.0]
angular_velocity: 
  x: -0.000905857484377
  y: 0.00318569629767
  z: -0.012704163149
angular_velocity_covariance: [0.0, 0.0, 0.0, 0.0, 0.0, 0.0, 0.0, 0.0, 0.0]
linear_acceleration: 
  x: 0.0403
  y: 0.0653
  z: -9.7552
linear_acceleration_covariance: [0.0, 0.0, 0.0, 0.0, 0.0, 0.0, 0.0, 0.0, 0.0]
velocity_ned: 
  x: 0.468276253278
  y: 0.0266193700551
  z: -0.0007
smoothed_coordinates_ned: 
  x: -2.81913345311
  y: 1.26087552741
  z: -9.27391798265
velocity_forward: 0.468958591312
velocity_lateral: 0.00830961099084
---
header: 
  seq: 86463
  stamp: 
    secs: 1411078515
    nsecs: 221089841
  frame_id: world
orientation: 
  x: -0.00245036476732
  y: -0.00412512744863
  z: 0.0195231704481
  w: 0.999797892002
orientation_covariance: [0.0, 0.0, 0.0, 0.0, 0.0, 0.0, 0.0, 0.0, 0.0]
angular_velocity: 
  x: 0.0007817174519
  y: 0.00470897809392
  z: -0.000207468398484
angular_velocity_covariance: [0.0, 0.0, 0.0, 0.0, 0.0, 0.0, 0.0, 0.0, 0.0]
linear_acceleration: 
  x: -0.0396
  y: 0.034
  z: -9.9613
linear_acceleration_covariance: [0.0, 0.0, 0.0, 0.0, 0.0, 0.0, 0.0, 0.0, 0.0]
velocity_ned: 
  x: 0.468674320559
  y: 0.0264155508294
  z: -0.0023
smoothed_coordinates_ned: 
  x: -2.81444671437
  y: 1.26113968267
  z: -9.27394098263
velocity_forward: 0.469348418778
velocity_lateral: 0.0080889919343
---
header: 
  seq: 86464
  stamp: 
    secs: 1411078515
    nsecs: 231324185
  frame_id: world
orientation: 
  x: -0.00246266000982
  y: -0.00416087898182
  z: 0.019525023279
  w: 0.999797677462
orientation_covariance: [0.0, 0.0, 0.0, 0.0, 0.0, 0.0, 0.0, 0.0, 0.0]
angular_velocity: 
  x: -0.0025526804446
  y: -0.00715838126508
  z: 0.000315436541035
angular_velocity_covariance: [0.0, 0.0, 0.0, 0.0, 0.0, 0.0, 0.0, 0.0, 0.0]
linear_acceleration: 
  x: 0.0917
  y: -0.0207
  z: -9.631
linear_acceleration_covariance: [0.0, 0.0, 0.0, 0.0, 0.0, 0.0, 0.0, 0.0, 0.0]
velocity_ned: 
  x: 0.470368499501
  y: 0.0257993076802
  z: -0.0006
smoothed_coordinates_ned: 
  x: -2.80974303387
  y: 1.2613976755
  z: -9.27394698262
velocity_forward: 0.471017264651
velocity_lateral: 0.00740516041215
---
header: 
  seq: 86465
  stamp: 
    secs: 1411078515
    nsecs: 241133802
  frame_id: world
orientation: 
  x: -0.00249629684077
  y: -0.00413445888515
  z: 0.0194969633033
  w: 0.999798251236
orientation_covariance: [0.0, 0.0, 0.0, 0.0, 0.0, 0.0, 0.0, 0.0, 0.0]
angular_velocity: 
  x: -0.00649396522424
  y: 0.00541117416214
  z: -0.0056612021562
angular_velocity_covariance: [0.0, 0.0, 0.0, 0.0, 0.0, 0.0, 0.0, 0.0, 0.0]
linear_acceleration: 
  x: 0.0813
  y: 0.0889
  z: -9.7652
linear_acceleration_covariance: [0.0, 0.0, 0.0, 0.0, 0.0, 0.0, 0.0, 0.0, 0.0]
velocity_ned: 
  x: 0.471973212213
  y: 0.0262839712273
  z: -0.0002
smoothed_coordinates_ned: 
  x: -2.80502330624
  y: 1.26166051496
  z: -9.27394898262
velocity_forward: 0.472639245824
velocity_lateral: 0.00785323544734
---
header: 
  seq: 86466
  stamp: 
    secs: 1411078515
    nsecs: 251064935
  frame_id: world
orientation: 
  x: -0.00247398021587
  y: -0.00412600821224
  z: 0.0194915784895
  w: 0.999798446611
orientation_covariance: [0.0, 0.0, 0.0, 0.0, 0.0, 0.0, 0.0, 0.0, 0.0]
angular_velocity: 
  x: 0.00450255535445
  y: 0.0015820618916
  z: -0.00152143861237
angular_velocity_covariance: [0.0, 0.0, 0.0, 0.0, 0.0, 0.0, 0.0, 0.0, 0.0]
linear_acceleration: 
  x: 0.0303
  y: 0.0845
  z: -9.936
linear_acceleration_covariance: [0.0, 0.0, 0.0, 0.0, 0.0, 0.0, 0.0, 0.0, 0.0]
velocity_ned: 
  x: 0.473076033428
  y: 0.0265734294296
  z: -0.0015
smoothed_coordinates_ned: 
  x: -2.80029255042
  y: 1.261926249
  z: -9.27396398261
velocity_forward: 0.473752429432
velocity_lateral: 0.00810466578888
---
header: 
  seq: 86467
  stamp: 
    secs: 1411078515
    nsecs: 261092926
  frame_id: world
orientation: 
  x: -0.00246508417848
  y: -0.00414979578011
  z: 0.0194745539676
  w: 0.999798701891
orientation_covariance: [0.0, 0.0, 0.0, 0.0, 0.0, 0.0, 0.0, 0.0, 0.0]
angular_velocity: 
  x: 0.00173828599487
  y: -0.00477765491809
  z: -0.00344158034683
angular_velocity_covariance: [0.0, 0.0, 0.0, 0.0, 0.0, 0.0, 0.0, 0.0, 0.0]
linear_acceleration: 
  x: 0.094
  y: 0.0223
  z: -9.6083
linear_acceleration_covariance: [0.0, 0.0, 0.0, 0.0, 0.0, 0.0, 0.0, 0.0, 0.0]
velocity_ned: 
  x: 0.474774998366
  y: 0.0264571633713
  z: 0.0004
smoothed_coordinates_ned: 
  x: -2.79554480497
  y: 1.26219082038
  z: -9.27395998261
velocity_forward: 0.475445298457
velocity_lateral: 0.00793839877772
---
header: 
  seq: 86468
  stamp: 
    secs: 1411078515
    nsecs: 271097716
  frame_id: world
orientation: 
  x: -0.00248049984001
  y: -0.00415953370717
  z: 0.0194494695634
  w: 0.999799111589
orientation_covariance: [0.0, 0.0, 0.0, 0.0, 0.0, 0.0, 0.0, 0.0, 0.0]
angular_velocity: 
  x: -0.00299821266622
  y: -0.00185599564136
  z: -0.00509538035748
angular_velocity_covariance: [0.0, 0.0, 0.0, 0.0, 0.0, 0.0, 0.0, 0.0, 0.0]
linear_acceleration: 
  x: 0.1212
  y: 0.1019
  z: -9.786
linear_acceleration_covariance: [0.0, 0.0, 0.0, 0.0, 0.0, 0.0, 0.0, 0.0, 0.0]
velocity_ned: 
  x: 0.476780649957
  y: 0.0270379939584
  z: 0.0005
smoothed_coordinates_ned: 
  x: -2.79077700301
  y: 1.26246120007
  z: -9.27395498261
velocity_forward: 0.477471634733
velocity_lateral: 0.00846451568001
---
header: 
  seq: 86469
  stamp: 
    secs: 1411078515
    nsecs: 281080868
  frame_id: world
orientation: 
  x: -0.00247658245095
  y: -0.00410098290036
  z: 0.0194636416716
  w: 0.999799087383
orientation_covariance: [0.0, 0.0, 0.0, 0.0, 0.0, 0.0, 0.0, 0.0, 0.0]
angular_velocity: 
  x: 0.000951653258218
  y: 0.0117417065213
  z: 0.0022677927691
angular_velocity_covariance: [0.0, 0.0, 0.0, 0.0, 0.0, 0.0, 0.0, 0.0, 0.0]
linear_acceleration: 
  x: 0.0
  y: 0.1003
  z: -9.9666
linear_acceleration_covariance: [0.0, 0.0, 0.0, 0.0, 0.0, 0.0, 0.0, 0.0, 0.0]
velocity_ned: 
  x: 0.477485403892
  y: 0.0275312713663
  z: -0.0011
smoothed_coordinates_ned: 
  x: -2.78600215353
  y: 1.26273651252
  z: -9.2739659826
velocity_forward: 0.47819529916
velocity_lateral: 0.00891660591664
---
header: 
  seq: 86470
  stamp: 
    secs: 1411078515
    nsecs: 291146082
  frame_id: world
orientation: 
  x: -0.00246036954019
  y: -0.0041156229458
  z: 0.0194451716966
  w: 0.999799426649
orientation_covariance: [0.0, 0.0, 0.0, 0.0, 0.0, 0.0, 0.0, 0.0, 0.0]
angular_velocity: 
  x: 0.00331961620357
  y: -0.00306860416514
  z: -0.00362757725469
angular_velocity_covariance: [0.0, 0.0, 0.0, 0.0, 0.0, 0.0, 0.0, 0.0, 0.0]
linear_acceleration: 
  x: 0.0362
  y: 0.0078
  z: -9.6532
linear_acceleration_covariance: [0.0, 0.0, 0.0, 0.0, 0.0, 0.0, 0.0, 0.0, 0.0]
velocity_ned: 
  x: 0.478682477331
  y: 0.0272197999454
  z: 0.0004
smoothed_coordinates_ned: 
  x: -2.78121533332
  y: 1.26300871026
  z: -9.27396198261
velocity_forward: 0.479379018916
velocity_lateral: 0.00857649247979
---
header: 
  seq: 86471
  stamp: 
    secs: 1411078515
    nsecs: 301052407
  frame_id: world
orientation: 
  x: -0.00247211466011
  y: -0.00410334660508
  z: 0.0194441574179
  w: 0.999799467862
orientation_covariance: [0.0, 0.0, 0.0, 0.0, 0.0, 0.0, 0.0, 0.0, 0.0]
angular_velocity: 
  x: -0.00226795565183
  y: 0.0025287933738
  z: -0.000261306781315
angular_velocity_covariance: [0.0, 0.0, 0.0, 0.0, 0.0, 0.0, 0.0, 0.0, 0.0]
linear_acceleration: 
  x: 0.0999
  y: 0.1281
  z: -9.814
linear_acceleration_covariance: [0.0, 0.0, 0.0, 0.0, 0.0, 0.0, 0.0, 0.0, 0.0]
velocity_ned: 
  x: 0.480390057062
  y: 0.0280034926553
  z: 0.0003
smoothed_coordinates_ned: 
  x: -2.77641143733
  y: 1.26328874492
  z: -9.27395898261
velocity_forward: 0.481115775349
velocity_lateral: 0.00929412236752
---
header: 
  seq: 86472
  stamp: 
    secs: 1411078515
    nsecs: 311052839
  frame_id: world
orientation: 
  x: -0.00251039489273
  y: -0.00406753539629
  z: 0.0194251046566
  w: 0.999799889169
orientation_covariance: [0.0, 0.0, 0.0, 0.0, 0.0, 0.0, 0.0, 0.0, 0.0]
angular_velocity: 
  x: -0.00756505386262
  y: 0.00736773919008
  z: -0.00437914138646
angular_velocity_covariance: [0.0, 0.0, 0.0, 0.0, 0.0, 0.0, 0.0, 0.0, 0.0]
linear_acceleration: 
  x: -0.0558
  y: 0.1236
  z: -9.9248
linear_acceleration_covariance: [0.0, 0.0, 0.0, 0.0, 0.0, 0.0, 0.0, 0.0, 0.0]
velocity_ned: 
  x: 0.480597705495
  y: 0.0288015417923
  z: -0.0009
smoothed_coordinates_ned: 
  x: -2.77160535028
  y: 1.26357676693
  z: -9.27396798282
velocity_forward: 0.481353928021
velocity_lateral: 0.0101017809661
---
header: 
  seq: 86473
  stamp: 
    secs: 1411078515
    nsecs: 321163361
  frame_id: world
orientation: 
  x: -0.00249032769237
  y: -0.00412265020577
  z: 0.0194230353398
  w: 0.999799753811
orientation_covariance: [0.0, 0.0, 0.0, 0.0, 0.0, 0.0, 0.0, 0.0, 0.0]
angular_velocity: 
  x: 0.00392306864522
  y: -0.0111621655688
  z: -0.000360682991344
angular_velocity_covariance: [0.0, 0.0, 0.0, 0.0, 0.0, 0.0, 0.0, 0.0, 0.0]
linear_acceleration: 
  x: 0.0349
  y: 0.0017
  z: -9.6649
linear_acceleration_covariance: [0.0, 0.0, 0.0, 0.0, 0.0, 0.0, 0.0, 0.0, 0.0]
velocity_ned: 
  x: 0.481693826317
  y: 0.0283910320452
  z: 0.0004
smoothed_coordinates_ned: 
  x: -2.76678841661
  y: 1.26386067698
  z: -9.27396398282
velocity_forward: 0.482433228448
velocity_lateral: 0.00965091133279
---
header: 
  seq: 86474
  stamp: 
    secs: 1411078515
    nsecs: 331094516
  frame_id: world
orientation: 
  x: -0.0025062666506
  y: -0.00409897111541
  z: 0.0194290341455
  w: 0.999799694787
orientation_covariance: [0.0, 0.0, 0.0, 0.0, 0.0, 0.0, 0.0, 0.0, 0.0]
angular_velocity: 
  x: -0.00310884686323
  y: 0.00485577836144
  z: 0.00107976279132
angular_velocity_covariance: [0.0, 0.0, 0.0, 0.0, 0.0, 0.0, 0.0, 0.0, 0.0]
linear_acceleration: 
  x: 0.1177
  y: 0.1014
  z: -9.8093
linear_acceleration_covariance: [0.0, 0.0, 0.0, 0.0, 0.0, 0.0, 0.0, 0.0, 0.0]
velocity_ned: 
  x: 0.483699477907
  y: 0.0289718626317
  z: 0.0003
smoothed_coordinates_ned: 
  x: -2.76195142644
  y: 1.26415039533
  z: -9.27396098282
velocity_forward: 0.484460057416
velocity_lateral: 0.0101475498763
---
header: 
  seq: 86475
  stamp: 
    secs: 1411078515
    nsecs: 341121025
  frame_id: world
orientation: 
  x: -0.00250144677891
  y: -0.00409382494546
  z: 0.0194090719113
  w: 0.999800115668
orientation_covariance: [0.0, 0.0, 0.0, 0.0, 0.0, 0.0, 0.0, 0.0, 0.0]
angular_velocity: 
  x: 0.00104559777174
  y: 0.000937278915596
  z: -0.00439658202859
angular_velocity_covariance: [0.0, 0.0, 0.0, 0.0, 0.0, 0.0, 0.0, 0.0, 0.0]
linear_acceleration: 
  x: -0.0046
  y: 0.1216
  z: -9.9086
linear_acceleration_covariance: [0.0, 0.0, 0.0, 0.0, 0.0, 0.0, 0.0, 0.0, 0.0]
velocity_ned: 
  x: 0.48440614624
  y: 0.0296651308737
  z: -0.0007
smoothed_coordinates_ned: 
  x: -2.7571073696
  y: 1.26444704635
  z: -9.27396798282
velocity_forward: 0.485192706813
velocity_lateral: 0.010832232231
---
header: 
  seq: 86476
  stamp: 
    secs: 1411078515
    nsecs: 351086379
  frame_id: world
orientation: 
  x: -0.00248713337499
  y: -0.00408108208011
  z: 0.0194236613959
  w: 0.999799920141
orientation_covariance: [0.0, 0.0, 0.0, 0.0, 0.0, 0.0, 0.0, 0.0, 0.0]
angular_velocity: 
  x: 0.00299686131557
  y: 0.00249469611701
  z: 0.00288149501804
angular_velocity_covariance: [0.0, 0.0, 0.0, 0.0, 0.0, 0.0, 0.0, 0.0, 0.0]
linear_acceleration: 
  x: 0.0088
  y: 0.0071
  z: -9.6678
linear_acceleration_covariance: [0.0, 0.0, 0.0, 0.0, 0.0, 0.0, 0.0, 0.0, 0.0]
velocity_ned: 
  x: 0.485203238004
  y: 0.0293574878331
  z: 0.0006
smoothed_coordinates_ned: 
  x: -2.75225534184
  y: 1.26474062095
  z: -9.27396198282
velocity_forward: 0.48597755536
velocity_lateral: 0.0104797751181
---
header: 
  seq: 86477
  stamp: 
    secs: 1411078515
    nsecs: 361113014
  frame_id: world
orientation: 
  x: -0.00249595452958
  y: -0.00409025633609
  z: 0.0194241006628
  w: 0.999799852134
orientation_covariance: [0.0, 0.0, 0.0, 0.0, 0.0, 0.0, 0.0, 0.0, 0.0]
angular_velocity: 
  x: -0.00179033681773
  y: -0.001729771059
  z: 3.44407103332e-05
angular_velocity_covariance: [0.0, 0.0, 0.0, 0.0, 0.0, 0.0, 0.0, 0.0, 0.0]
linear_acceleration: 
  x: 0.1244
  y: 0.0903
  z: -9.7722
linear_acceleration_covariance: [0.0, 0.0, 0.0, 0.0, 0.0, 0.0, 0.0, 0.0, 0.0]
velocity_ned: 
  x: 0.487206975196
  y: 0.029738327579
  z: 0.0009
smoothed_coordinates_ned: 
  x: -2.74738327674
  y: 1.26503800394
  z: -9.27395298283
velocity_forward: 0.487994589196
velocity_lateral: 0.0107819717772
---
header: 
  seq: 86478
  stamp: 
    secs: 1411078515
    nsecs: 371084375
  frame_id: world
orientation: 
  x: -0.00252285202652
  y: -0.00407471751959
  z: 0.0194015396168
  w: 0.999800286135
orientation_covariance: [0.0, 0.0, 0.0, 0.0, 0.0, 0.0, 0.0, 0.0, 0.0]
angular_velocity: 
  x: -0.00522993379405
  y: 0.00306425547104
  z: -0.00499827279347
angular_velocity_covariance: [0.0, 0.0, 0.0, 0.0, 0.0, 0.0, 0.0, 0.0, 0.0]
linear_acceleration: 
  x: -0.0249
  y: 0.0898
  z: -9.9116
linear_acceleration_covariance: [0.0, 0.0, 0.0, 0.0, 0.0, 0.0, 0.0, 0.0, 0.0]
velocity_ned: 
  x: 0.487711738291
  y: 0.0302335191816
  z: -0.0002
smoothed_coordinates_ned: 
  x: -2.74250616401
  y: 1.26534033885
  z: -9.27395498283
velocity_forward: 0.48851770759
velocity_lateral: 0.0112791564915
---
header: 
  seq: 86479
  stamp: 
    secs: 1411078515
    nsecs: 381046156
  frame_id: world
orientation: 
  x: -0.00250289666353
  y: -0.00407628028207
  z: 0.0193821196553
  w: 0.999800706584
orientation_covariance: [0.0, 0.0, 0.0, 0.0, 0.0, 0.0, 0.0, 0.0, 0.0]
angular_velocity: 
  x: 0.00406134470412
  y: -0.000380182442141
  z: -0.00387550519352
angular_velocity_covariance: [0.0, 0.0, 0.0, 0.0, 0.0, 0.0, 0.0, 0.0, 0.0]
linear_acceleration: 
  x: 0.0149
  y: -0.027
  z: -9.6773
linear_acceleration_covariance: [0.0, 0.0, 0.0, 0.0, 0.0, 0.0, 0.0, 0.0, 0.0]
velocity_ned: 
  x: 0.488604039478
  y: 0.0294249419518
  z: 0.0011
smoothed_coordinates_ned: 
  x: -2.73762012827
  y: 1.26563458798
  z: -9.27394398284
velocity_forward: 0.489377543047
velocity_lateral: 0.0104556377902
---
header: 
  seq: 86480
  stamp: 
    secs: 1411078515
    nsecs: 391207354
  frame_id: world
orientation: 
  x: -0.00251169525715
  y: -0.00408299863382
  z: 0.0194000620073
  w: 0.999800309113
orientation_covariance: [0.0, 0.0, 0.0, 0.0, 0.0, 0.0, 0.0, 0.0, 0.0]
angular_velocity: 
  x: -0.001758716283
  y: -0.00129153814055
  z: 0.00355266748619
angular_velocity_covariance: [0.0, 0.0, 0.0, 0.0, 0.0, 0.0, 0.0, 0.0, 0.0]
linear_acceleration: 
  x: 0.1561
  y: 0.0402
  z: -9.7693
linear_acceleration_covariance: [0.0, 0.0, 0.0, 0.0, 0.0, 0.0, 0.0, 0.0, 0.0]
velocity_ned: 
  x: 0.491003929551
  y: 0.0294019716412
  z: 0.0014
smoothed_coordinates_ned: 
  x: -2.73271009366
  y: 1.26592860742
  z: -9.27392998285
velocity_forward: 0.49177510919
velocity_lateral: 0.0103219175245
---
header: 
  seq: 86481
  stamp: 
    secs: 1411078515
    nsecs: 401079429
  frame_id: world
orientation: 
  x: -0.00253360851507
  y: -0.00406192003654
  z: 0.0194000320287
  w: 0.999800340263
orientation_covariance: [0.0, 0.0, 0.0, 0.0, 0.0, 0.0, 0.0, 0.0, 0.0]
angular_velocity: 
  x: -0.00429679443902
  y: 0.00425806124061
  z: -0.000416739750904
angular_velocity_covariance: [0.0, 0.0, 0.0, 0.0, 0.0, 0.0, 0.0, 0.0, 0.0]
linear_acceleration: 
  x: 0.007
  y: 0.0743
  z: -9.8826
linear_acceleration_covariance: [0.0, 0.0, 0.0, 0.0, 0.0, 0.0, 0.0, 0.0, 0.0]
velocity_ned: 
  x: 0.491806764509
  y: 0.0296943011206
  z: 0.0006
smoothed_coordinates_ned: 
  x: -2.7277920307
  y: 1.26622555015
  z: -9.27392398286
velocity_forward: 0.492588685376
velocity_lateral: 0.0105828653925
---
header: 
  seq: 86482
  stamp: 
    secs: 1411078515
    nsecs: 411138458
  frame_id: world
orientation: 
  x: -0.0025187739604
  y: -0.004057083339
  z: 0.0193816086556
  w: 0.9998007547
orientation_covariance: [0.0, 0.0, 0.0, 0.0, 0.0, 0.0, 0.0, 0.0, 0.0]
angular_velocity: 
  x: 0.00305991301989
  y: 0.000820563196761
  z: -0.00371990703524
angular_velocity_covariance: [0.0, 0.0, 0.0, 0.0, 0.0, 0.0, 0.0, 0.0, 0.0]
linear_acceleration: 
  x: 0.0019
  y: -0.0438
  z: -9.6966
linear_acceleration_covariance: [0.0, 0.0, 0.0, 0.0, 0.0, 0.0, 0.0, 0.0, 0.0]
velocity_ned: 
  x: 0.492598113075
  y: 0.0287866855671
  z: 0.0016
smoothed_coordinates_ned: 
  x: -2.72286605427
  y: 1.26651341673
  z: -9.27390798287
velocity_forward: 0.493343853017
velocity_lateral: 0.00966347196107
---
header: 
  seq: 86483
  stamp: 
    secs: 1411078515
    nsecs: 421103022
  frame_id: world
orientation: 
  x: -0.00252688822044
  y: -0.00405519078086
  z: 0.0193625853186
  w: 0.999801110498
orientation_covariance: [0.0, 0.0, 0.0, 0.0, 0.0, 0.0, 0.0, 0.0, 0.0]
angular_velocity: 
  x: -0.00153909007372
  y: 0.000409935754777
  z: -0.00386464156448
angular_velocity_covariance: [0.0, 0.0, 0.0, 0.0, 0.0, 0.0, 0.0, 0.0, 0.0]
linear_acceleration: 
  x: 0.1536
  y: 0.0782
  z: -9.7716
linear_acceleration_covariance: [0.0, 0.0, 0.0, 0.0, 0.0, 0.0, 0.0, 0.0, 0.0]
velocity_ned: 
  x: 0.494901836528
  y: 0.0291646540261
  z: 0.0019
smoothed_coordinates_ned: 
  x: -2.71791704063
  y: 1.26680506299
  z: -9.27388898289
velocity_forward: 0.495660121405
velocity_lateral: 0.00997065938896
---
header: 
  seq: 86484
  stamp: 
    secs: 1411078515
    nsecs: 431396456
  frame_id: world
orientation: 
  x: -0.00254736328199
  y: -0.00402861143387
  z: 0.0193735749559
  w: 0.999800953102
orientation_covariance: [0.0, 0.0, 0.0, 0.0, 0.0, 0.0, 0.0, 0.0, 0.0]
angular_velocity: 
  x: -0.00390381773493
  y: 0.00532927164099
  z: 0.00172103773027
angular_velocity_covariance: [0.0, 0.0, 0.0, 0.0, 0.0, 0.0, 0.0, 0.0, 0.0]
linear_acceleration: 
  x: -0.0171
  y: 0.0702
  z: -9.8909
linear_acceleration_covariance: [0.0, 0.0, 0.0, 0.0, 0.0, 0.0, 0.0, 0.0, 0.0]
velocity_ned: 
  x: 0.495403728026
  y: 0.0293598593718
  z: 0.001
smoothed_coordinates_ned: 
  x: -2.71296300807
  y: 1.26709866131
  z: -9.2738789829
velocity_forward: 0.496169421151
velocity_lateral: 0.0101353596278
---
header: 
  seq: 86485
  stamp: 
    secs: 1411078515
    nsecs: 441159698
  frame_id: world
orientation: 
  x: -0.00251820728613
  y: -0.00405958448087
  z: 0.0193861030374
  w: 0.999800658839
orientation_covariance: [0.0, 0.0, 0.0, 0.0, 0.0, 0.0, 0.0, 0.0, 0.0]
angular_velocity: 
  x: 0.00574990644999
  y: -0.00621719320439
  z: 0.00252851428226
angular_velocity_covariance: [0.0, 0.0, 0.0, 0.0, 0.0, 0.0, 0.0, 0.0, 0.0]
linear_acceleration: 
  x: 0.0172
  y: -0.0603
  z: -9.7
linear_acceleration_covariance: [0.0, 0.0, 0.0, 0.0, 0.0, 0.0, 0.0, 0.0, 0.0]
velocity_ned: 
  x: 0.496393153035
  y: 0.0282503387903
  z: 0.002
smoothed_coordinates_ned: 
  x: -2.70799908127
  y: 1.26738116442
  z: -9.27385898292
velocity_forward: 0.497115321966
velocity_lateral: 0.00897589364578
---
header: 
  seq: 86486
  stamp: 
    secs: 1411078515
    nsecs: 451178916
  frame_id: world
orientation: 
  x: -0.0025228141831
  y: -0.00405762923049
  z: 0.0193690934879
  w: 0.999800984832
orientation_covariance: [0.0, 0.0, 0.0, 0.0, 0.0, 0.0, 0.0, 0.0, 0.0]
angular_velocity: 
  x: -0.000832622627069
  y: 0.000362256118463
  z: -0.00341871468033
angular_velocity_covariance: [0.0, 0.0, 0.0, 0.0, 0.0, 0.0, 0.0, 0.0, 0.0]
linear_acceleration: 
  x: 0.1767
  y: 0.0347
  z: -9.81
linear_acceleration_covariance: [0.0, 0.0, 0.0, 0.0, 0.0, 0.0, 0.0, 0.0, 0.0]
velocity_ned: 
  x: 0.49899303395
  y: 0.0282254542909
  z: 0.0019
smoothed_coordinates_ned: 
  x: -2.70300915569
  y: 1.2676634187
  z: -9.27383998294
velocity_forward: 0.499711980187
velocity_lateral: 0.00886717868336
---
header: 
  seq: 86487
  stamp: 
    secs: 1411078515
    nsecs: 461227058
  frame_id: world
orientation: 
  x: -0.0025506442441
  y: -0.00401466596985
  z: 0.0193711011648
  w: 0.999801048765
orientation_covariance: [0.0, 0.0, 0.0, 0.0, 0.0, 0.0, 0.0, 0.0, 0.0]
angular_velocity: 
  x: -0.00535963002295
  y: 0.00863998577748
  z: -6.79101030452e-05
angular_velocity_covariance: [0.0, 0.0, 0.0, 0.0, 0.0, 0.0, 0.0, 0.0, 0.0]
linear_acceleration: 
  x: 0.0358
  y: 0.0671
  z: -9.8894
linear_acceleration_covariance: [0.0, 0.0, 0.0, 0.0, 0.0, 0.0, 0.0, 0.0, 0.0]
velocity_ned: 
  x: 0.499994902545
  y: 0.028415874158
  z: 0.0011
smoothed_coordinates_ned: 
  x: -2.69800921144
  y: 1.26794757717
  z: -9.27382898295
velocity_forward: 0.500720511282
velocity_lateral: 0.00901662805505
---
header: 
  seq: 86488
  stamp: 
    secs: 1411078515
    nsecs: 471219907
  frame_id: world
orientation: 
  x: -0.00255697329111
  y: -0.00401934340345
  z: 0.0193915587633
  w: 0.999800617231
orientation_covariance: [0.0, 0.0, 0.0, 0.0, 0.0, 0.0, 0.0, 0.0, 0.0]
angular_velocity: 
  x: -0.00130246409478
  y: -0.000898437119057
  z: 0.00408458052007
angular_velocity_covariance: [0.0, 0.0, 0.0, 0.0, 0.0, 0.0, 0.0, 0.0, 0.0]
linear_acceleration: 
  x: 0.0263
  y: -0.0636
  z: -9.7001
linear_acceleration_covariance: [0.0, 0.0, 0.0, 0.0, 0.0, 0.0, 0.0, 0.0, 0.0]
velocity_ned: 
  x: 0.501084322974
  y: 0.0273053964806
  z: 0.0021
smoothed_coordinates_ned: 
  x: -2.69299837298
  y: 1.26822063087
  z: -9.27380798297
velocity_forward: 0.501766398513
velocity_lateral: 0.00784419044802
---
header: 
  seq: 86489
  stamp: 
    secs: 1411078515
    nsecs: 481186802
  frame_id: world
orientation: 
  x: -0.00254146877574
  y: -0.00402250401302
  z: 0.0193766145907
  w: 0.999800933789
orientation_covariance: [0.0, 0.0, 0.0, 0.0, 0.0, 0.0, 0.0, 0.0, 0.0]
angular_velocity: 
  x: 0.00320433843032
  y: -0.000766122677509
  z: -0.0030506673478
angular_velocity_covariance: [0.0, 0.0, 0.0, 0.0, 0.0, 0.0, 0.0, 0.0, 0.0]
linear_acceleration: 
  x: 0.1857
  y: 0.0749
  z: -9.7666
linear_acceleration_covariance: [0.0, 0.0, 0.0, 0.0, 0.0, 0.0, 0.0, 0.0, 0.0]
velocity_ned: 
  x: 0.503687075484
  y: 0.0275804982367
  z: 0.0024
smoothed_coordinates_ned: 
  x: -2.68796150703
  y: 1.26849643559
  z: -9.27378398299
velocity_forward: 0.504377623515
velocity_lateral: 0.00803323704276
---
header: 
  seq: 86490
  stamp: 
    secs: 1411078515
    nsecs: 491298545
  frame_id: world
orientation: 
  x: -0.00257118741926
  y: -0.00400762756718
  z: 0.0193955343495
  w: 0.999800550692
orientation_covariance: [0.0, 0.0, 0.0, 0.0, 0.0, 0.0, 0.0, 0.0, 0.0]
angular_velocity: 
  x: -0.00580730948656
  y: 0.0030884433743
  z: 0.00342783810164
angular_velocity_covariance: [0.0, 0.0, 0.0, 0.0, 0.0, 0.0, 0.0, 0.0, 0.0]
linear_acceleration: 
  x: -0.013
  y: 0.0863
  z: -9.8517
linear_acceleration_covariance: [0.0, 0.0, 0.0, 0.0, 0.0, 0.0, 0.0, 0.0, 0.0]
velocity_ned: 
  x: 0.504290876801
  y: 0.0279747373221
  z: 0.0019
smoothed_coordinates_ned: 
  x: -2.68291860307
  y: 1.2687761827
  z: -9.27376498301
velocity_forward: 0.504996573038
velocity_lateral: 0.00838458226444
---
header: 
  seq: 86491
  stamp: 
    secs: 1411078515
    nsecs: 501291538
  frame_id: world
orientation: 
  x: -0.0025371988802
  y: -0.00398047005412
  z: 0.0193982433672
  w: 0.999800693456
orientation_covariance: [0.0, 0.0, 0.0, 0.0, 0.0, 0.0, 0.0, 0.0, 0.0]
angular_velocity: 
  x: 0.00692615230609
  y: 0.00531248914208
  z: 0.000516694637235
angular_velocity_covariance: [0.0, 0.0, 0.0, 0.0, 0.0, 0.0, 0.0, 0.0, 0.0]
linear_acceleration: 
  x: -0.0439
  y: -0.0258
  z: -9.7525
linear_acceleration_covariance: [0.0, 0.0, 0.0, 0.0, 0.0, 0.0, 0.0, 0.0, 0.0]
velocity_ned: 
  x: 0.504584162666
  y: 0.0272718980838
  z: 0.0024
smoothed_coordinates_ned: 
  x: -2.67787276626
  y: 1.26904890142
  z: -9.27374098303
velocity_forward: 0.505262403289
velocity_lateral: 0.00766836507783
---
header: 
  seq: 86492
  stamp: 
    secs: 1411078515
    nsecs: 511124333
  frame_id: world
orientation: 
  x: -0.00257341287803
  y: -0.00399715430273
  z: 0.0193900560137
  w: 0.999800693154
orientation_covariance: [0.0, 0.0, 0.0, 0.0, 0.0, 0.0, 0.0, 0.0, 0.0]
angular_velocity: 
  x: -0.0072969628183
  y: -0.00322864835742
  z: -0.00168055449555
angular_velocity_covariance: [0.0, 0.0, 0.0, 0.0, 0.0, 0.0, 0.0, 0.0, 0.0]
linear_acceleration: 
  x: 0.1611
  y: 0.0698
  z: -9.7942
linear_acceleration_covariance: [0.0, 0.0, 0.0, 0.0, 0.0, 0.0, 0.0, 0.0, 0.0]
velocity_ned: 
  x: 0.506985967142
  y: 0.0274489186091
  z: 0.0025
smoothed_coordinates_ned: 
  x: -2.67280291142
  y: 1.26932339034
  z: -9.27371598306
velocity_forward: 0.507669144136
velocity_lateral: 0.00776016058329
---
header: 
  seq: 86493
  stamp: 
    secs: 1411078515
    nsecs: 521154379
  frame_id: world
orientation: 
  x: -0.00259690615143
  y: -0.00396963572976
  z: 0.019401538745
  w: 0.999800519286
orientation_covariance: [0.0, 0.0, 0.0, 0.0, 0.0, 0.0, 0.0, 0.0, 0.0]
angular_velocity: 
  x: -0.00447514609337
  y: 0.0055905072425
  z: 0.00191512302857
angular_velocity_covariance: [0.0, 0.0, 0.0, 0.0, 0.0, 0.0, 0.0, 0.0, 0.0]
linear_acceleration: 
  x: -0.0623
  y: 0.0769
  z: -9.8677
linear_acceleration_covariance: [0.0, 0.0, 0.0, 0.0, 0.0, 0.0, 0.0, 0.0, 0.0]
velocity_ned: 
  x: 0.506988838741
  y: 0.0277489048494
  z: 0.0018
smoothed_coordinates_ned: 
  x: -2.66773302787
  y: 1.26960087913
  z: -9.27369798307
velocity_forward: 0.507683836218
velocity_lateral: 0.00804813290454
---
header: 
  seq: 86494
  stamp: 
    secs: 1411078515
    nsecs: 531107713
  frame_id: world
orientation: 
  x: -0.0026007817422
  y: -0.00399826285212
  z: 0.0194189388781
  w: 0.999800057332
orientation_covariance: [0.0, 0.0, 0.0, 0.0, 0.0, 0.0, 0.0, 0.0, 0.0]
angular_velocity: 
  x: -0.000877056405868
  y: -0.00575170692603
  z: 0.00342403847788
angular_velocity_covariance: [0.0, 0.0, 0.0, 0.0, 0.0, 0.0, 0.0, 0.0, 0.0]
linear_acceleration: 
  x: -0.0243
  y: -0.0303
  z: -9.7457
linear_acceleration_covariance: [0.0, 0.0, 0.0, 0.0, 0.0, 0.0, 0.0, 0.0, 0.0]
velocity_ned: 
  x: 0.507581153666
  y: 0.0269431989039
  z: 0.0024
smoothed_coordinates_ned: 
  x: -2.66265722118
  y: 1.26987031086
  z: -9.2736739831
velocity_forward: 0.508244682749
velocity_lateral: 0.007202253644
---
header: 
  seq: 86495
  stamp: 
    secs: 1411078515
    nsecs: 541200174
  frame_id: world
orientation: 
  x: -0.00258752266092
  y: -0.00400607737359
  z: 0.0194454635924
  w: 0.999799544917
orientation_covariance: [0.0, 0.0, 0.0, 0.0, 0.0, 0.0, 0.0, 0.0, 0.0]
angular_velocity: 
  x: 0.00266903443538
  y: -0.00154247502929
  z: 0.00518956895771
angular_velocity_covariance: [0.0, 0.0, 0.0, 0.0, 0.0, 0.0, 0.0, 0.0, 0.0]
linear_acceleration: 
  x: 0.1839
  y: 0.1062
  z: -9.8202
linear_acceleration_covariance: [0.0, 0.0, 0.0, 0.0, 0.0, 0.0, 0.0, 0.0, 0.0]
velocity_ned: 
  x: 0.510186777775
  y: 0.0275182869128
  z: 0.0022
smoothed_coordinates_ned: 
  x: -2.65755535826
  y: 1.27014549347
  z: -9.27365198312
velocity_forward: 0.510871088396
velocity_lateral: 0.00764859732406
---
header: 
  seq: 86496
  stamp: 
    secs: 1411078515
    nsecs: 551081402
  frame_id: world
orientation: 
  x: -0.0026189039218
  y: -0.0039601915833
  z: 0.0194499693667
  w: 0.99979955837
orientation_covariance: [0.0, 0.0, 0.0, 0.0, 0.0, 0.0, 0.0, 0.0, 0.0]
angular_velocity: 
  x: -0.0060496649969
  y: 0.00898313064531
  z: -0.00134577755764
angular_velocity_covariance: [0.0, 0.0, 0.0, 0.0, 0.0, 0.0, 0.0, 0.0, 0.0]
linear_acceleration: 
  x: -0.0407
  y: 0.0908
  z: -9.8587
linear_acceleration_covariance: [0.0, 0.0, 0.0, 0.0, 0.0, 0.0, 0.0, 0.0, 0.0]
velocity_ned: 
  x: 0.510390597413
  y: 0.0279163543947
  z: 0.0015
smoothed_coordinates_ned: 
  x: -2.65245145716
  y: 1.27042465674
  z: -9.27363698313
velocity_forward: 0.51109031248
velocity_lateral: 0.00803383402431
---
header: 
  seq: 86497
  stamp: 
    secs: 1411078515
    nsecs: 561129489
  frame_id: world
orientation: 
  x: -0.00264080525577
  y: -0.00396857694216
  z: 0.0194343629723
  w: 0.999799770994
orientation_covariance: [0.0, 0.0, 0.0, 0.0, 0.0, 0.0, 0.0, 0.0, 0.0]
angular_velocity: 
  x: -0.00439486626829
  y: -0.00158736872614
  z: -0.00322594342962
angular_velocity_covariance: [0.0, 0.0, 0.0, 0.0, 0.0, 0.0, 0.0, 0.0, 0.0]
linear_acceleration: 
  x: -0.0066
  y: -0.0079
  z: -9.7892
linear_acceleration_covariance: [0.0, 0.0, 0.0, 0.0, 0.0, 0.0, 0.0, 0.0, 0.0]
velocity_ned: 
  x: 0.511085779353
  y: 0.027409677607
  z: 0.0017
smoothed_coordinates_ned: 
  x: -2.64734048238
  y: 1.27069875979
  z: -9.27361998274
velocity_forward: 0.511765018765
velocity_lateral: 0.00751635337367
---
header: 
  seq: 86498
  stamp: 
    secs: 1411078515
    nsecs: 571120043
  frame_id: world
orientation: 
  x: -0.00263642750578
  y: -0.00398108633724
  z: 0.0194683371347
  w: 0.999799071839
orientation_covariance: [0.0, 0.0, 0.0, 0.0, 0.0, 0.0, 0.0, 0.0, 0.0]
angular_velocity: 
  x: 0.000896510852139
  y: -0.00243311447735
  z: 0.00681055961226
angular_velocity_covariance: [0.0, 0.0, 0.0, 0.0, 0.0, 0.0, 0.0, 0.0, 0.0]
linear_acceleration: 
  x: 0.1218
  y: 0.0832
  z: -9.8009
linear_acceleration_covariance: [0.0, 0.0, 0.0, 0.0, 0.0, 0.0, 0.0, 0.0, 0.0]
velocity_ned: 
  x: 0.513089516547
  y: 0.0277905173499
  z: 0.0016
smoothed_coordinates_ned: 
  x: -2.64220959211
  y: 1.2709766647
  z: -9.27360398276
velocity_forward: 0.513782578982
velocity_lateral: 0.00778405645537
---
header: 
  seq: 86499
  stamp: 
    secs: 1411078515
    nsecs: 581073768
  frame_id: world
orientation: 
  x: -0.0026850726152
  y: -0.00394803303095
  z: 0.0194702420762
  w: 0.999799036354
orientation_covariance: [0.0, 0.0, 0.0, 0.0, 0.0, 0.0, 0.0, 0.0, 0.0]
angular_velocity: 
  x: -0.00953556344305
  y: 0.00652006951621
  z: -0.00189037650412
angular_velocity_covariance: [0.0, 0.0, 0.0, 0.0, 0.0, 0.0, 0.0, 0.0, 0.0]
linear_acceleration: 
  x: -0.0609
  y: 0.0886
  z: -9.8685
linear_acceleration_covariance: [0.0, 0.0, 0.0, 0.0, 0.0, 0.0, 0.0, 0.0, 0.0]
velocity_ned: 
  x: 0.512992392725
  y: 0.028091460696
  z: 0.0009
smoothed_coordinates_ned: 
  x: -2.63707967308
  y: 1.27125757904
  z: -9.27359498277
velocity_forward: 0.513697282962
velocity_lateral: 0.00808649972745
---
header: 
  seq: 86500
  stamp: 
    secs: 1411078515
    nsecs: 591064606
  frame_id: world
orientation: 
  x: -0.00270885140121
  y: -0.00395949945378
  z: 0.0194706157234
  w: 0.999798919589
orientation_covariance: [0.0, 0.0, 0.0, 0.0, 0.0, 0.0, 0.0, 0.0, 0.0]
angular_velocity: 
  x: -0.00474003009829
  y: -0.00221990984037
  z: -1.46617850335e-05
angular_velocity_covariance: [0.0, 0.0, 0.0, 0.0, 0.0, 0.0, 0.0, 0.0, 0.0]
linear_acceleration: 
  x: -0.0578
  y: -0.0038
  z: -9.8318
linear_acceleration_covariance: [0.0, 0.0, 0.0, 0.0, 0.0, 0.0, 0.0, 0.0, 0.0]
velocity_ned: 
  x: 0.513186640372
  y: 0.0274895739687
  z: 0.0006
smoothed_coordinates_ned: 
  x: -2.63194781157
  y: 1.27153247452
  z: -9.27358898277
velocity_forward: 0.513867944743
velocity_lateral: 0.0074769890546
---
header: 
  seq: 86501
  stamp: 
    secs: 1411078515
    nsecs: 601095406
  frame_id: world
orientation: 
  x: -0.00271043642557
  y: -0.00395355155224
  z: 0.0194786253264
  w: 0.999798782816
orientation_covariance: [0.0, 0.0, 0.0, 0.0, 0.0, 0.0, 0.0, 0.0, 0.0]
angular_velocity: 
  x: -0.000272029608594
  y: 0.00120862101362
  z: 0.00154121222986
angular_velocity_covariance: [0.0, 0.0, 0.0, 0.0, 0.0, 0.0, 0.0, 0.0, 0.0]
linear_acceleration: 
  x: 0.1403
  y: 0.0915
  z: -9.8158
linear_acceleration_covariance: [0.0, 0.0, 0.0, 0.0, 0.0, 0.0, 0.0, 0.0, 0.0]
velocity_ned: 
  x: 0.515391325604
  y: 0.027968494942
  z: 0.0005
smoothed_coordinates_ned: 
  x: -2.62679390323
  y: 1.2718121592
  z: -9.27358398278
velocity_forward: 0.516089738648
velocity_lateral: 0.00786140329703
---
header: 
  seq: 86502
  stamp: 
    secs: 1411078515
    nsecs: 611124941
  frame_id: world
orientation: 
  x: -0.00271197209254
  y: -0.00394714445713
  z: 0.0195016333578
  w: 0.999798355447
orientation_covariance: [0.0, 0.0, 0.0, 0.0, 0.0, 0.0, 0.0, 0.0, 0.0]
angular_velocity: 
  x: -0.000329639961401
  y: 0.00119409138618
  z: 0.00252088937824
angular_velocity_covariance: [0.0, 0.0, 0.0, 0.0, 0.0, 0.0, 0.0, 0.0, 0.0]
linear_acceleration: 
  x: -0.0506
  y: 0.0741
  z: -9.8471
linear_acceleration_covariance: [0.0, 0.0, 0.0, 0.0, 0.0, 0.0, 0.0, 0.0, 0.0]
velocity_ned: 
  x: 0.515493235422
  y: 0.0281675286627
  z: 0.0
smoothed_coordinates_ned: 
  x: -2.62163897579
  y: 1.27209383422
  z: -9.27358398278
velocity_forward: 0.516199697631
velocity_lateral: 0.00803256903379
---
header: 
  seq: 86503
  stamp: 
    secs: 1411078515
    nsecs: 621050587
  frame_id: world
orientation: 
  x: -0.00273619426123
  y: -0.00396309859092
  z: 0.0194939933635
  w: 0.99979837533
